<markers>
<marker nome="Lignano"  id="18" lat="45.6659" lon="13.111" testo="Webcam installata presso l'ufficio spiaggia n.3 di Lignano Pineta e puntata in direzione est. L'immagine viene aggiornata con frequenza oraria." category="osmer" />
<marker nome="Trieste"  id="13" lat="45.6436" lon="13.7538" testo="Webcam installata sulla torre dell'ISMAR-CNR e puntata in direzione nord-ovest. L'immagine viene aggiornata con frequenza oraria." category="osmer" />
<marker nome="Aurisina"  id="53" lat="45.7412" lon="13.6695" testo="Webcam installata sul tetto del Dipartimento di Oceanografia Biologica (BIO) dell'Istituto Nazionale di Oceanografia e Geofisica Sperimentale (OGS) di Trieste e puntata in direzione SSE. L'immagine viene aggiornata con frequenza oraria.
" category="osmer" />
<marker nome="GradoMare"  id="51" lat="45.6764" lon="13.3945" testo="Webcam installata presso la GIT Grado impianti turistici e puntata in direzione sud-ovest. L'immagine viene aggiornata con frequenza oraria." category="osmer" />
<marker nome="Monfalcone"  id="95" lat="45.7805" lon="13.5365" testo="Webcam installata presso la marina Hannibal e puntata in direzione sud-est. L'immagine viene aggiornata con frequenza oraria." category="osmer" />
<marker nome="Tolmezzo"  id="96" lat="46.4057" lon="13.0059" testo="Webcam installata sul tetto dell'Ospedale Civile di Tolmezzo e puntata in direzione ovest. In condizioni di buona visibilità si osservano a sinistra le pendici del monte Verzegnis, al centro la valle del Tagliamento verso Ampezzo con sullo sfondo il monte Tinisa e a destra in primo piano l`abitato di Caneva. L'immagine viene aggiornata con frequenza oraria." category="osmer" />
<marker nome="Ligosullo"  id="97" lat="46.5408" lon="13.0785" testo="Webcam installata presso l`Osteria al Camoscio (loc. Ronc dal Neît) e puntata in direzione ovest. In condizioni di buona visibilità si osservano in primo piano a sinistra le pendici del monte Cucco, al centro i paesi della valle di Ligosullo e Treppo Carnico e a destra le pendici del monte Paularo; in secondo piano a sinistra il monte Zoncolan, al centro la conca di Paluzza con dietro la sella di Ravascletto e a destra le pendici dei monti Tenchia e Valsecca. L'immagine viene aggiornata con frequenza oraria." category="osmer" />
<marker nome="Zoncolan"  id=" 8" lat="46.5000" lon="12.9281" testo="Webcam installata sulla cresta vicino all'arrivo della seggiovia Val di Nuf e puntata in direzione nordovest-nord. In condizioni di buona visibilità si osservano il monte Coglians a destra e il monte Peralba a sinistra; in basso a sinistra i paesi di Ludario (sotto) e Sigilletto (sopra). L'immagine viene aggiornata con frequenza oraria." category="osmer" />
<marker nome="Sauris"  id=" 9" lat="46.4677" lon="12.6817" testo="Webcam installata presso la sede della Lumiei Impianti di Sauris di Sopra e puntata in direzione ovest. In condizioni di buona visibilità si osservano a sinistra il monte Bivera e a destra il monte Tiarfin. L'immagine viene aggiornata con frequenza oraria." category="osmer" />
<marker nome="Claut"  id="10" lat="46.2242" lon="12.4678" testo="Webcam installata in loc. Pinedo (altitudine m 564); punta in direzione ESE. In primo piano a sinistra le pendici sud del m.te Piolsa; al centro l'abitato di Claut; a destra il versante nord del m.te Ressetum. Sullo sfondo il m.te Pinzat e la forc. Clautana. L'immagine viene aggiornata ogni 30 minuti." category="osmer" />
<marker nome="Barcis"  id="11" lat="46.18838" lon="12.5752" testo="Webcam ospitata da Edipower presso il posto di guardia della diga di Ponte Antoi.L'immagine viene aggiornata con frequenza oraria." category="osmer" />
<marker nome="Portorose"  id="101" lat="45.50982" lon="13.59570" testo="Portoroz - Portorose" link="http://www.portoroz.si/imagelib/full/webcams/webcam1.jpg" category="altro" />
<marker nome="Capodistria"  id="102" lat="45.54287" lon="13.71540" testo="KOPER-CAPODISTRIA fonte: Public Information of Slovenia, ARSO - meteo.si" link="http://meteo.arso.gov.si/uploads/probase/www/observ/webcam/KOPER_MARKOVEC_dir/siwc_KOPER_MARKOVEC_e.jpg" category="altro" />
<marker nome="Muggia"  id="103" lat="45.60407" lon="13.77116" testo="MUGGIA fonte: Societ&amp;agrave; Nautica Giacinto Pullino, webcam puntata in direzione nord, aggiornamento ogni 3 minuti. " link="http://www.snpullino.it/ipcamera/webmuggianord.jpg" category="altro" />
<marker nome="Aurisina"  id="104" lat="45.69285" lon="13.74926" testo="MONTE GRISA fonte: C.I.S.A.R. Sezione di Trieste" link="http://www.cisar.it/ext_site/trieste/meteo/cam1.jpg" category="altro" />
<marker nome="Lokve"  id="105" lat="46.01135" lon="13.791636" testo="LOKVE" link="http://kamere.planota.si/web-lokve.jpg" category="altro" />
<marker nome="Ljubljana"  id="106" lat="46.06179" lon="14.51036" testo="LJUBLJANA
fonte: Public Information of Slovenia, ARSO - meteo.si" link="http://meteo.arso.gov.si/uploads/probase/www/observ/webcam/siwc_ljubljana-bezigrad_s-zoom_48.jpg" category="altro" />
<marker nome="Gorizia"  id="107" lat="45.94185" lon="13.59650" testo="GORIZIA fonte: Rudy Gratton" link="http://217.133.72.56/record/current.jpg" category="altro" />
<marker nome="Carlino"  id="108" lat="45.80174" lon="13.18801" testo="CARLINO fonte: carlinometeo.altervista.org, la webcam è puntata in direzione nord-ovest." link="http://carlinometeo.altervista.org/webcam/webcam.jpg" category="altro" />
<marker nome="Pasian di Prato"  id="109" lat="46.04803" lon="13.18943" testo="PASIAN DI PRATO Webcam installata in località Pasian di Prato, con visuale da Ovest (a sinistra) a Nord Ovest (a destra)." link="http://villaprimavera.dnsalias.com/record/current.jpg" category="altro" />
<marker nome="Udine"  id="110" lat="46.06501" lon="13.23534" testo="UDINE - Piazza della Libert&amp;agrave; fonte: Comune di Udine." link="http://www.comune.udine.it/opencms/castello/castello.jpg" category="altro" />
<marker nome="Cividale"  id="111" lat="46.09153" lon="13.43224" testo="CIVIDALE fonte: S.I.C. Comune di Cividale del Friuli." link="http://webcam.cividale.net/cividale.jpg" category="altro" />
<marker nome="Tarcento"  id="112" lat="46.20824" lon="13.20348" testo="TARCENTO fonte: Osteria Sul Ronc, webcam puntata in direzione ovest, sullo sfondo al centro si possono vedere le colline moreniche friulane e le prealpi carniche. " link="http://79.38.107.56/record/current.jpg?rand=6990265" category="altro" />
<marker nome="Gemona"  id="113" lat="46.27482" lon="13.129413" testo="GEMONA fonte: agenzia viaggi PROSSIMA DESTINAZIONE; webcam con visuale da sud (sinistra) fino a nordovest (destra), che consente di osservare la piana di Osoppo e, dal centro verso destra, i monti Cuâr, Brancot e San Simeone. " link="http://meteogemona.dnsalias.com/record/current.jpg" category="altro" />
<marker nome="Fontanafredda"  id="114" lat="45.97787" lon="12.57179" testo="FONTANAFREDDA fonte: Meteofontanafredda.it, webcam puntata in direzione sud-ovest, sulla destra si vedono le ultime pendici del Cansiglio.  " link="http://fontanafredda.altervista.org/_altervista_ht/current.jpg" category="altro" />
<marker nome="Sacile"  id="115" lat="45.95634" lon="12.49068" testo="SACILE fonte: http://sacilemeteo.altervista.org" link="http://sacilemeteo.altervista.org/_altervista_ht/webcam.jpg" category="altro" />
<marker nome="Maniago"  id="116" lat="46.17113" lon="12.70675" testo="MANIAGO fonte: www.magris.it, vista su Piazza Italia. " link="http://www.magris.it/images/cam.jpg" category="altro" />
<marker nome="Piancavallo"  id="118" lat="46.10860" lon="12.51297" testo="PIANCAVALLO fonte: Promotur S.p.A., polo di Piancavallo." link="http://promotur.digitalwebland.com/webcam/labusa.jpg.ashx?maxheight=768&amp;maxwidth=3000" category="altro" />
<marker nome="Cimolais"  id="119" lat="46.28772" lon="12.43845" testo="CIMOLAIS fonte: Parco Dolomiti Friulane, webcam puntata in direzione nord; a sinistra in primo piano si osserva il pendio del monte Lodina, più indietro Cima Ciazzalte, sullo sfondo la Cima Mora e in centro il Dosso Nadei, a destra il monte Scandoler." link="http://www.parcodolomitifriulane.it/PN05/current.jpg" category="altro" />
<marker nome="Forni di Sopra paese"  id="120" lat="46.42351" lon="12.58226" testo="FORNI DI SOPRA fonte: Comune di Forni di Sopra." link="http://webcam.fornidisopra.org/Forni-di-Sopra.jpg" category="altro" />
<marker nome="Forni di Sopra piste"  id="121" lat="46.42454" lon="12.58101" testo="FORNI DI SOPRA fonte: Comune di Forni di Sopra." link="http://webcam.fornidisopra.org/Forni-di-Sopra.2.jpg" category="altro" />
<marker nome="Sappada"  id="122" lat="46.57417" lon="12.68895" testo="SAPPADA fonte: ARPA - Veneto" link="http://www.arpa.veneto.it/csvdi/svm/arpav/arp008.jpg" category="altro" />
<marker nome="Kötschach-Mauthen"  id="123" lat="46.67632" lon="12.99745" testo="K&amp;Ouml;TSCHACH-MAUTHEN fonte: Comune di K&amp;ouml;tschach-Mauthen, Tourismusb&amp;uuml;ro." link="http://www.koemau.at/webcam/upload/big_current1.jpg" category="altro" />
<marker nome=" Nassfeld-Hermagor"  id="124" lat="46.56579" lon="13.25494" testo="NASSFELD	fonte: Nassfeld-Hermagor Pressegger See." link="http://nassfeld1.it-wms.com/panorama2.jpg" category="altro" />
<marker nome="Pressegger See"  id="125" lat="46.62721" lon="13.44645" testo="PRESSEGGERSEE fonte: Nassfeld-Hermagor Pressegger See." link="http://presseggersee.it-wms.com/big_current3.jpg" category="altro" />
<marker nome="Faakersee"  id="126" lat="46.58609" lon="13.92452" testo="FAAKERSEE fonte: Ossiacher See Tourismus Gmbh." link="http://faakersee.it-wms.com/big_current3.jpg" category="altro" />
<marker nome="Monte Acomizza"  id="127" lat="46.54819" lon="13.51668" testo="MONTE ACOMIZZA fonte: Istituto Nazionale di Oceanografia e di Geofisica Sperimentale (OGS), Centro di Ricerche Sismologiche (CRS)." link="http://www.crs.inogs.it/ipcam/acom/acom.jpg" category="altro" />
<marker nome="Tarvisio"  id="128" lat="46.50060" lon="13.57708" testo="TARVISIO fonte: Comune di Tarvisio." link="http://94.90.160.242/record/current.jpg" category="altro" />
<marker nome="Monte Lussari"  id="129" lat="46.48150" lon="13.52071" testo="MONTE LUSSARI fonte: Promotur S.p.A., polo di Tarvisio." link="http://promotur.digitalwebland.com/webcam/lussari.jpg.ashx?maxheight=768&amp;maxwidth=3000" category="altro" />
<marker nome="Monte Florianca"  id="130" lat="46.48522" lon="13.54738" testo="MONTE FLORIANCA f onte: Promotur S.p.A., polo di Tarvisio." link="http://promotur.digitalwebland.com/webcam/florianca.jpg.ashx?maxheight=768&amp;maxwidth=3000" category="altro" />
<marker nome="Cave del Predil"  id="131" lat="46.44165" lon="13.56894" testo="CAVE DEL PREDIL  fonte: qnet.it, webcam puntata in direzione nord, si osservano le Cinque Punte." link="http://raibl.qnet.it/MOBOTIX/esterno.jpg" category="altro" />
<marker nome="Sella Nevea"  id="132" lat="46.37752" lon="13.46350" testo="SELLA NEVEA fonte: Promotur S.p.A., polo di Tarvisio." link="http://promotur.digitalwebland.com/webcam/sellaseggiovia.jpg.ashx?maxheight=768&amp;maxwidth=3000" category="altro" />
<marker nome="Bovec NE"  id="133" lat="46.33566" lon="13.55240" testo="BOVEC NE fonte: fonte: Public Information of Slovenia, ARSO - meteo.si." link="http://meteo.arso.gov.si/uploads/probase/www/observ/webcam/BOVEC_dir/siwc_BOVEC_ne.jpg" category="altro" />
<marker nome="Bovec SW"  id="134" lat="46.33531" lon="13.55129" testo="BOVEC SW fonte: fonte: Public Information of Slovenia, ARSO - meteo.si." link="http://meteo.arso.gov.si/uploads/probase/www/observ/webcam/BOVEC_dir/siwc_BOVEC_sw.jpg" category="altro" />
<marker nome="Resia"  id="135" lat="46.37367" lon="13.30688" testo="RESIA fonte: Parco Naturale Prealpi Giulie." link="http://retecentraline.meteopoint.com/UD06/webcam/current.jpg" category="altro" />
<marker nome="Amaro"  id="136" lat="46.36807" lon="13.07947" testo="AMARO fonte: Helica Srl, webcam puntata in direzione est, si osserva a sinistra il monte Pisimoni e a destra il monte Plauris." link="http://www.helica.it/webcam/current.jpg" category="altro" />
<marker nome="Kredarica"  id="137" lat="46.38704" lon="13.8598" testo="KREDARICA SE fonte: Public Information of Slovenia, ARSO - meteo.si." link="http://meteo.arso.gov.si/uploads/probase/www/observ/webcam/KREDA-ICA_dir/siwc_KREDA-ICA_e_latest.jpg" category="altro" />
<marker nome="Polcenigo"  id="138" lat="46.031" lon="12.502" testo="Webcam della scuola media G. Pascoli di Polcenigo, con vista verso il Cansiglio" link="http://iccaneva.it/images/stories/webcam/current.jpg" category="altro" />
<marker nome="Liariis di Ovaro"  id="139" lat="46.493" lon="12.876" testo="Vista da Liariis di Ovaro verso i monti della Val Pesarina" link="http://meteoliariis.altervista.org/webcam/0.jpg" category="altro" />

</markers>

